{
"type": "FeatureCollection",
"name": "wojewodztwa_centroidy",
"crs": { "type": "name", "properties": { "name": "urn:ogc:def:crs:OGC:1.3:CRS84" } },
"features": [
{ "type": "Feature", "properties": { "JPT_KOD_JE": "14", "JPT_NAZWA_": "mazowieckie", "WERSJA_OD": "2021-06-02", "WAZNY_OD": "2012-09-26", "IIP_PRZEST": "PL.PZGIK.200", "IIP_WERSJA": "2021-06-02T09:29:34+02:00", "Shape_Leng": 20.225774190399999, "Shape_Area": 4.6894739760800004, "REGON": "01552891000000" }, "geometry": { "type": "Point", "coordinates": [ 21.562663, 52.247587 ] } },
{ "type": "Feature", "properties": { "JPT_KOD_JE": "26", "JPT_NAZWA_": "świętokrzyskie", "WERSJA_OD": "2012-09-26", "WAZNY_OD": "2012-09-26", "IIP_PRZEST": "PL.PZGIK.200", "IIP_WERSJA": "2012-09-27T13:45:13+02:00", "Shape_Leng": 9.2649586360300002, "Shape_Area": 1.49182660477, "REGON": "29100933700000" }, "geometry": { "type": "Point", "coordinates": [ 20.79858, 50.763886 ] } },
{ "type": "Feature", "properties": { "JPT_KOD_JE": "22", "JPT_NAZWA_": "pomorskie", "WERSJA_OD": "2020-04-09", "WAZNY_OD": "2012-09-26", "IIP_PRZEST": "PL.PZGIK.200", "IIP_WERSJA": "2020-04-09T13:57:03+02:00", "Shape_Leng": 13.167594537, "Shape_Area": 2.5206302562, "REGON": "19167483600000" }, "geometry": { "type": "Point", "coordinates": [ 18.000932, 54.163435 ] } },
{ "type": "Feature", "properties": { "JPT_KOD_JE": "02", "JPT_NAZWA_": "dolnośląskie", "WERSJA_OD": "2021-07-23", "WAZNY_OD": "2012-09-26", "IIP_PRZEST": "PL.PZGIK.200", "IIP_WERSJA": "2021-07-23T11:07:28+02:00", "Shape_Leng": 13.8458512623, "Shape_Area": 2.55917391285, "REGON": "93193464400000" }, "geometry": { "type": "Point", "coordinates": [ 16.361247, 50.950833 ] } },
{ "type": "Feature", "properties": { "JPT_KOD_JE": "20", "JPT_NAZWA_": "podlaskie", "WERSJA_OD": "2019-03-21", "WAZNY_OD": "2012-09-26", "IIP_PRZEST": "PL.PZGIK.200", "IIP_WERSJA": "2019-03-21T09:53:34+01:00", "Shape_Leng": 11.101165822900001, "Shape_Area": 2.7184836999500002, "REGON": "05065840400000" }, "geometry": { "type": "Point", "coordinates": [ 23.240768, 53.133302 ] } },
{ "type": "Feature", "properties": { "JPT_KOD_JE": "32", "JPT_NAZWA_": "zachodniopomorskie", "WERSJA_OD": "2020-04-24", "WAZNY_OD": "2012-09-26", "IIP_PRZEST": "PL.PZGIK.200", "IIP_WERSJA": "2020-04-24T13:47:42+02:00", "Shape_Leng": 12.137157606900001, "Shape_Area": 3.1075493245799999, "REGON": "81168387600000" }, "geometry": { "type": "Point", "coordinates": [ 15.528095, 53.597788 ] } },
{ "type": "Feature", "properties": { "JPT_KOD_JE": "24", "JPT_NAZWA_": "śląskie", "WERSJA_OD": "2021-07-05", "WAZNY_OD": "2012-09-26", "IIP_PRZEST": "PL.PZGIK.200", "IIP_WERSJA": "2021-07-05T09:49:01+02:00", "Shape_Leng": 12.1370151712, "Shape_Area": 1.55733506598, "REGON": "27625465000000" }, "geometry": { "type": "Point", "coordinates": [ 18.846382, 50.246728 ] } },
{ "type": "Feature", "properties": { "JPT_KOD_JE": "16", "JPT_NAZWA_": "opolskie", "WERSJA_OD": "2021-07-05", "WAZNY_OD": "2012-09-26", "IIP_PRZEST": "PL.PZGIK.200", "IIP_WERSJA": "2021-07-05T09:49:01+02:00", "Shape_Leng": 9.0052705021899992, "Shape_Area": 1.1962049697899999, "REGON": "53141242100000" }, "geometry": { "type": "Point", "coordinates": [ 17.850996, 50.58367 ] } },
{ "type": "Feature", "properties": { "JPT_KOD_JE": "08", "JPT_NAZWA_": "lubuskie", "WERSJA_OD": "2021-07-23", "WAZNY_OD": "2012-09-26", "IIP_PRZEST": "PL.PZGIK.200", "IIP_WERSJA": "2021-07-23T11:07:28+02:00", "Shape_Leng": 11.091478946800001, "Shape_Area": 1.83849993294, "REGON": "97789593100000" }, "geometry": { "type": "Point", "coordinates": [ 15.281511, 52.243479 ] } },
{ "type": "Feature", "properties": { "JPT_KOD_JE": "30", "JPT_NAZWA_": "wielkopolskie", "WERSJA_OD": "2020-12-08", "WAZNY_OD": "2012-09-26", "IIP_PRZEST": "PL.PZGIK.200", "IIP_WERSJA": "2020-12-08T12:14:06+01:00", "Shape_Leng": 18.408184486500001, "Shape_Area": 3.93219536862, "REGON": "63125781600000" }, "geometry": { "type": "Point", "coordinates": [ 17.314048, 52.37977 ] } },
{ "type": "Feature", "properties": { "JPT_KOD_JE": "12", "JPT_NAZWA_": "małopolskie", "WERSJA_OD": "2021-05-18", "WAZNY_OD": "2012-09-26", "IIP_PRZEST": "PL.PZGIK.200", "IIP_WERSJA": "2021-05-18T08:56:02+02:00", "Shape_Leng": 11.428783339800001, "Shape_Area": 1.8985085020400001, "REGON": "35155428700000" }, "geometry": { "type": "Point", "coordinates": [ 20.265449, 49.849507 ] } },
{ "type": "Feature", "properties": { "JPT_KOD_JE": "10", "JPT_NAZWA_": "łódzkie", "WERSJA_OD": "2021-06-02", "WAZNY_OD": "2012-09-26", "IIP_PRZEST": "PL.PZGIK.200", "IIP_WERSJA": "2021-06-02T09:29:34+02:00", "Shape_Leng": 12.077971047, "Shape_Area": 2.3636171590499999, "REGON": "47205762600000" }, "geometry": { "type": "Point", "coordinates": [ 19.393602, 51.618761 ] } },
{ "type": "Feature", "properties": { "JPT_KOD_JE": "28", "JPT_NAZWA_": "warmińsko-mazurskie", "WERSJA_OD": "2019-08-13", "WAZNY_OD": "2012-09-26", "IIP_PRZEST": "PL.PZGIK.200", "IIP_WERSJA": "2019-08-13T16:05:44+02:00", "Shape_Leng": 12.8011677987, "Shape_Area": 3.3007948273399998, "REGON": "51074233300000" }, "geometry": { "type": "Point", "coordinates": [ 21.103851, 53.796116 ] } },
{ "type": "Feature", "properties": { "JPT_KOD_JE": "04", "JPT_NAZWA_": "kujawsko-pomorskie", "WERSJA_OD": "2020-12-08", "WAZNY_OD": "2012-09-26", "IIP_PRZEST": "PL.PZGIK.200", "IIP_WERSJA": "2020-12-08T12:14:06+01:00", "Shape_Leng": 12.3949176248, "Shape_Area": 2.40941388759, "REGON": "09235061300000" }, "geometry": { "type": "Point", "coordinates": [ 18.487749, 53.056124 ] } },
{ "type": "Feature", "properties": { "JPT_KOD_JE": "06", "JPT_NAZWA_": "lubelskie", "WERSJA_OD": "2021-08-09", "WAZNY_OD": "2012-09-26", "IIP_PRZEST": "PL.PZGIK.200", "IIP_WERSJA": "2021-08-09T09:15:22+02:00", "Shape_Leng": 14.1103469717, "Shape_Area": 3.2323139431299999, "REGON": "43101917000000" }, "geometry": { "type": "Point", "coordinates": [ 23.285043, 51.007719 ] } },
{ "type": "Feature", "properties": { "JPT_KOD_JE": "18", "JPT_NAZWA_": "podkarpackie", "WERSJA_OD": "2021-08-09", "WAZNY_OD": "2012-09-26", "IIP_PRZEST": "PL.PZGIK.200", "IIP_WERSJA": "2021-08-09T09:15:22+02:00", "Shape_Leng": 11.222468946699999, "Shape_Area": 2.2356899169100002, "REGON": "69058132400000" }, "geometry": { "type": "Point", "coordinates": [ 21.798796, 50.236329 ] } }
]
}
